[
    {
        "date": "2024-12-03",
        "name": "Mensah Bismark ",
        "location": "Box 389 Obuasi Municipal, Ashanti Region",
        "product": "Nano Tape",
        "state": "AH",
        "phone_number": "+233203802237"
    },
    {
        "date": "2024-12-03",
        "name": "Stephen ",
        "location": "Tarkwa Cyanide Type B 25",
        "product": "Nano Tape",
        "state": "WP",
        "phone_number": "+233542174280"
    },
    {
        "date": "2024-12-03",
        "name": "Suraj ",
        "location": "Ek-0021-4072",
        "product": "Nano Tape",
        "state": "EP",
        "phone_number": "0533567080"
    },
    {
        "date": "2024-12-03",
        "name": "Felix ",
        "location": "Ashiman Katamasu , School Juction",
        "product": "Nano Tape",
        "state": "AA",
        "phone_number": "0534956507"
    },
    {
        "date": "2024-12-03",
        "name": "David Dordah ",
        "location": "Box 643 Wa Upper West Region. XO-4602-5127",
        "product": "Nano Tape",
        "state": "UW",
        "phone_number": "0244840511"
    },
    {
        "date": "2024-12-03",
        "name": "Felix ",
        "location": "Dd 38 Dodowa",
        "product": "Nano Tape",
        "state": "AA",
        "phone_number": "024 211 1665"
    },
    {
        "date": "2024-12-03",
        "name": "JOHN Dadzie ",
        "location": "DELA, Sakaman",
        "product": "Windscreen Umbrella",
        "state": "AA",
        "phone_number": "0550231324"
    },
    {
        "date": "2024-12-03",
        "name": "Rich ",
        "location": "Dome",
        "product": "Nano Tape",
        "state": "AA",
        "phone_number": "0536720128"
    },
    {
        "date": "2024-12-03",
        "name": "Julien ",
        "location": "Accra Financial Center",
        "product": "Nano Tape",
        "state": "AA",
        "phone_number": "0553996336"
    },
    {
        "date": "2024-12-03",
        "name": "Daniel ",
        "location": "BJ1118 kpone",
        "product": "Nano Tape",
        "state": "AA",
        "phone_number": "0257960764"
    },
    {
        "date": "2024-12-03",
        "name": "Mikado Ptomise ",
        "location": "Medo lines Burma camp",
        "product": "Windscreen Umbrella",
        "state": "AA",
        "phone_number": "0240820118"
    },
    {
        "date": "2024-12-03",
        "name": "Eric Odoom ",
        "location": "Asankragwa",
        "product": "Nano Tape",
        "state": "WP",
        "phone_number": "+233241658563"
    },
    {
        "date": "2024-12-03",
        "name": "Eric ",
        "location": "Asankragwa",
        "product": "Nano Tape",
        "state": "AA",
        "phone_number": "+233241658563"
    },
    {
        "date": "2024-12-03",
        "name": "Kpaye ",
        "location": "Goaso",
        "product": "Nano Tape",
        "state": "AF",
        "phone_number": "0257300851"
    },
    {
        "date": "2024-12-03",
        "name": "King Arthur ",
        "location": "Arakan barracks Burma camp Accra block c room 55",
        "product": "Windscreen Umbrella",
        "state": "AA",
        "phone_number": "+233240192128"
    },
    {
        "date": "2024-12-03",
        "name": "Meshack ",
        "location": "Berlin Top",
        "product": "Nano Tape",
        "state": "BO",
        "phone_number": "+233242098004"
    },
    {
        "date": "2024-12-03",
        "name": "Shadrack churcher ",
        "location": "Duncan Street Tarkwa",
        "product": "Windscreen Umbrella",
        "state": "AA",
        "phone_number": "0244023172"
    },
    {
        "date": "2024-12-03",
        "name": "Kwabena ",
        "location": "Cape Coast,eyifua Estates",
        "product": "Nano Tape",
        "state": "AA",
        "phone_number": "0276159779"
    },
    {
        "date": "2024-12-03",
        "name": "Abdul ",
        "location": "Lands commission Kumasi",
        "product": "Nano Tape",
        "state": "AH",
        "phone_number": "242321309"
    },
    {
        "date": "2024-12-03",
        "name": "Judith ",
        "location": "Kwashieman Jah Love",
        "product": "Nano Tape",
        "state": "AA",
        "phone_number": "0547858877"
    },
    {
        "date": "2024-12-03",
        "name": "Cletus ",
        "location": "Cal 194",
        "product": "Nano Tape",
        "state": "UE",
        "phone_number": "24-457-6583"
    },
    {
        "date": "2024-12-03",
        "name": "Abdul-Latif Adam ",
        "location": "Wa",
        "product": "Nano Tape",
        "state": "UW",
        "phone_number": "0207714911"
    },
    {
        "date": "2024-12-03",
        "name": "Marlomer ",
        "location": "Abelemkpe",
        "product": "Windscreen Umbrella",
        "state": "AA",
        "phone_number": "0245001611"
    },
    {
        "date": "2024-12-03",
        "name": "William ",
        "location": "Motto way Abatoir bridge",
        "product": "Nano Tape",
        "state": "AA",
        "phone_number": "531703056"
    },
    {
        "date": "2024-12-03",
        "name": "Ayaabilla ",
        "location": "Osino",
        "product": "Nano Tape",
        "state": "TV",
        "phone_number": "0541338868"
    },
    {
        "date": "2024-12-03",
        "name": "Richard annor asare ",
        "location": "138 Ask/b 128",
        "product": "Nano Tape",
        "state": "AA",
        "phone_number": "0535055582"
    },
    {
        "date": "2024-12-03",
        "name": "Solomon ",
        "location": "Breman UGC dvla office",
        "product": "Nano Tape",
        "state": "AA",
        "phone_number": "0549653734"
    },
    {
        "date": "2024-12-03",
        "name": "Emmanuel ",
        "location": "Kokobite Road Frimps Fuel Station Kasoa",
        "product": "Windscreen Umbrella",
        "state": "AA",
        "phone_number": "(+233)598898917"
    },
    {
        "date": "2024-12-03",
        "name": "Joel ",
        "location": "Tema com 4 bacardis",
        "product": "Windscreen Umbrella",
        "state": "AA",
        "phone_number": "0555700411"
    },
    {
        "date": "2024-12-03",
        "name": "Zakariah Awusi ",
        "location": "F24, Sapele, Twimia-Techiman",
        "product": "Nano Tape",
        "state": "BE",
        "phone_number": "233206333381"
    },
    {
        "date": "2024-12-03",
        "name": "Vince ",
        "location": "Spintex",
        "product": "Nano Tape",
        "state": "AA",
        "phone_number": "0245945130"
    },
    {
        "date": "2024-12-03",
        "name": "Benjamin ",
        "location": "Pmb GNAT office nkawie",
        "product": "Windscreen Umbrella",
        "state": "AH",
        "phone_number": "0543923353"
    },
    {
        "date": "2024-12-03",
        "name": "John mohammed ",
        "location": "Presidential drive",
        "product": "Windscreen Umbrella",
        "state": "AA",
        "phone_number": "0547968717"
    },
    {
        "date": "2024-12-03",
        "name": "Yaw Asamoah ",
        "location": "Makola Shopping Mall, Accra Central",
        "product": "Windscreen Umbrella",
        "state": "AA",
        "phone_number": "0244614671"
    },
    {
        "date": "2024-12-03",
        "name": "Jones ",
        "location": "Ds 2323 Dansoman",
        "product": "Windscreen Umbrella",
        "state": "AA",
        "phone_number": "0209990211"
    },
    {
        "date": "2024-12-03",
        "name": "Kennedy ",
        "location": "#2 Justice Azu Crabbe St East Legon",
        "product": "Windscreen Umbrella",
        "state": "AA",
        "phone_number": "+233543504956"
    },
    {
        "date": "2024-12-03",
        "name": "Eric Boadu ",
        "location": "Apinto Government Hospital.Tarkw",
        "product": "Windscreen Umbrella",
        "state": "WP",
        "phone_number": "0544540460"
    },
    {
        "date": "2024-12-03",
        "name": "Kobby ",
        "location": "No. 51c Hse. North Ridge close to Alisa Hotel",
        "product": "Windscreen Umbrella",
        "state": "AA",
        "phone_number": "0243628146"
    },
    {
        "date": "2024-12-03",
        "name": "DAVID OLOSO ",
        "location": "F 20",
        "product": "Windscreen Umbrella",
        "state": "EP",
        "phone_number": "0546223030"
    },
    {
        "date": "2024-12-03",
        "name": "Isaac ",
        "location": "Ejisu Kwamo Star Health Clinic Premises",
        "product": "Windscreen Umbrella",
        "state": "AA",
        "phone_number": "24-874-7420"
    },
    {
        "date": "2024-12-03",
        "name": "Stephanie ",
        "location": "Botwe Lakeside transformer last stop",
        "product": "Windscreen Umbrella",
        "state": "AA",
        "phone_number": "0244480733"
    },
    {
        "date": "2024-12-03",
        "name": "Isaac ",
        "location": "S149 Tanzui Bolgatanga",
        "product": "Windscreen Umbrella",
        "state": "AA",
        "phone_number": "+233241227714"
    },
    {
        "date": "2024-12-03",
        "name": "Emmanuel ",
        "location": "Dansoman",
        "product": "Windscreen Umbrella",
        "state": "AA",
        "phone_number": "024 482 5083"
    },
    {
        "date": "2024-12-03",
        "name": "Captain Addo ",
        "location": "Sethi Realty Estate Tema Community 26, Around Kpone Kuffour affordable housing",
        "product": "Windscreen Umbrella",
        "state": "AA",
        "phone_number": "0202140495"
    },
    {
        "date": "2024-12-03",
        "name": "Eyram Agbeko Morgah ",
        "location": "Bibiani Nsuontem Road Aloe Vera Street",
        "product": "Windscreen Umbrella",
        "state": "WN",
        "phone_number": "(+233)242303810"
    },
    {
        "date": "2024-12-03",
        "name": "dickson ",
        "location": "ergt",
        "product": "Car Wash Nozzle",
        "state": "AA",
        "phone_number": "456457"
    },
    {
        "date": "2024-12-03",
        "name": "Paa Kwesi ",
        "location": "Madina Maye Hot",
        "product": "Windscreen Umbrella",
        "state": "AA",
        "phone_number": "020 906 1176"
    },
    {
        "date": "2024-12-03",
        "name": "Kwadwo ",
        "location": "3 Mps Terminal 3, Tema Community",
        "product": "Windscreen Umbrella",
        "state": "AA",
        "phone_number": "0200399488"
    },
    {
        "date": "2024-12-03",
        "name": "Kwadwo ",
        "location": "Box lf 374 koforidua",
        "product": "Windscreen Umbrella",
        "state": "EP",
        "phone_number": "0555773336"
    },
    {
        "date": "2024-12-03",
        "name": "KINGDOM ",
        "location": "H/n. GF 31 Freetown",
        "product": "Windscreen Umbrella",
        "state": "AA",
        "phone_number": "0249293718"
    },
    {
        "date": "2024-12-03",
        "name": "James Larbi ",
        "location": "A worker at ECG office at Fawoade opposite Simms school",
        "product": "Windscreen Umbrella",
        "state": "AH",
        "phone_number": "0593777529"
    },
    {
        "date": "2024-12-03",
        "name": "Babayar ",
        "location": "W/E 380",
        "product": "Windscreen Umbrella",
        "state": "NP",
        "phone_number": "0241633825"
    },
    {
        "date": "2024-12-03",
        "name": "Vincent ",
        "location": "Lekma Hospital Teshie",
        "product": "Windscreen Umbrella",
        "state": "AA",
        "phone_number": "0547314891"
    },
    {
        "date": "2024-12-03",
        "name": "Habib ",
        "location": "Madina Accra",
        "product": "Windscreen Umbrella",
        "state": "AA",
        "phone_number": "0244170683"
    },
    {
        "date": "2024-12-03",
        "name": "Francis Ampiaw ",
        "location": "Ho Technical University, Ho",
        "product": "Windscreen Umbrella",
        "state": "TV",
        "phone_number": "0244512468"
    },
    {
        "date": "2024-12-03",
        "name": "Alexander ",
        "location": "1st Rangoon Close, Accra",
        "product": "Windscreen Umbrella",
        "state": "AA",
        "phone_number": "+233 24 286 7395"
    },
    {
        "date": "2024-12-03",
        "name": "Keneth ",
        "location": "Gw-0228-7270 ,ofankor,greater Accra",
        "product": "Windscreen Umbrella",
        "state": "AA",
        "phone_number": "+233532628667"
    },
    {
        "date": "2024-12-03",
        "name": "Henry ",
        "location": "Ak 57'A",
        "product": "Windscreen Umbrella",
        "state": "WP",
        "phone_number": "0541756447"
    },
    {
        "date": "2024-12-03",
        "name": "OSMAN ",
        "location": "21B TANZUI BOLGATANGA",
        "product": "Windscreen Umbrella",
        "state": "AA",
        "phone_number": "0247437841"
    },
    {
        "date": "2024-12-03",
        "name": "Prince ",
        "location": "Teshie",
        "product": "Windscreen Umbrella",
        "state": "AA",
        "phone_number": "0242012227"
    },
    {
        "date": "2024-12-03",
        "name": "Noble ",
        "location": "Commercial Bank Junction Konongo",
        "product": "Windscreen Umbrella",
        "state": "AH",
        "phone_number": "0249241398"
    },
    {
        "date": "2024-12-03",
        "name": "Edmond Zankoh ",
        "location": "National Hockey Stadium near team station Accra",
        "product": "Windscreen Umbrella",
        "state": "AA",
        "phone_number": "+233545183765"
    },
    {
        "date": "2024-12-03",
        "name": "Hanson ",
        "location": "Tafo 4miles",
        "product": "Windscreen Umbrella",
        "state": "AH",
        "phone_number": "0546469564"
    },
    {
        "date": "2024-12-03",
        "name": "Essuman ",
        "location": "C5 Junction Leisure Hotel Road Nungua",
        "product": "Windscreen Umbrella",
        "state": "AA",
        "phone_number": "0240827226"
    },
    {
        "date": "2024-12-03",
        "name": "Daniel ",
        "location": "Ashanti Gardens, House # H",
        "product": "Windscreen Umbrella",
        "state": "AA",
        "phone_number": "053-103-2446"
    },
    {
        "date": "2024-12-03",
        "name": "Abraham Yeboah ",
        "location": "26 A Safo II crescent kotei, kumasi",
        "product": "Windscreen Umbrella",
        "state": "AH",
        "phone_number": "262884544"
    },
    {
        "date": "2024-12-03",
        "name": "Henry ",
        "location": "Spintex com 20",
        "product": "Windscreen Umbrella",
        "state": "AA",
        "phone_number": "0247550600"
    },
    {
        "date": "2024-12-03",
        "name": "Isaac Benefo ",
        "location": "Controller and accountant general department",
        "product": "Windscreen Umbrella",
        "state": "AA",
        "phone_number": "0556676866"
    },
    {
        "date": "2024-12-03",
        "name": "Brilliant ",
        "location": "Keta Hospital Bungalow",
        "product": "Windscreen Umbrella",
        "state": "TV",
        "phone_number": "0248703311"
    },
    {
        "date": "2024-12-03",
        "name": "George ",
        "location": "Plt6 Blk7 Asokwa Kumasi",
        "product": "Windscreen Umbrella",
        "state": "AH",
        "phone_number": "027 716 6098"
    },
    {
        "date": "2024-12-03",
        "name": "Justice ",
        "location": "Gps 0112",
        "product": "Windscreen Umbrella",
        "state": "AA",
        "phone_number": "+233555152760"
    },
    {
        "date": "2024-12-03",
        "name": "Samuel ",
        "location": "Sefwi Juaboso",
        "product": "EarBud Cleaner",
        "state": "AA",
        "phone_number": "0247775169"
    },
    {
        "date": "2024-12-03",
        "name": "MOJEED ",
        "location": "Ashongman estate",
        "product": "EarBud Cleaner",
        "state": "AA",
        "phone_number": "0500441017"
    },
    {
        "date": "2024-12-03",
        "name": "Richard Agbesi ",
        "location": "B Road Sakumono",
        "product": "EarBud Cleaner",
        "state": "AA",
        "phone_number": "+233242789058"
    },
    {
        "date": "2024-12-03",
        "name": "Maame ",
        "location": "Comm 16 Timber Market",
        "product": "EarBud Cleaner",
        "state": "AA",
        "phone_number": "024 008 1422"
    },
    {
        "date": "2024-12-03",
        "name": "Kingsley ",
        "location": "Agape House New Testament Church",
        "product": "EarBud Cleaner",
        "state": "AA",
        "phone_number": "+233546414338"
    },
    {
        "date": "2024-12-03",
        "name": "Nana ",
        "location": "Block 2,flat G7 Ssnit Flat Asuoyeboa",
        "product": "EarBud Cleaner",
        "state": "AH",
        "phone_number": "0543545259"
    },
    {
        "date": "2024-12-03",
        "name": "Nana ",
        "location": "Block 2,flat G7 Ssnit Flat Asuoyeboa",
        "product": "EarBud Cleaner",
        "state": "AA",
        "phone_number": "0543545259"
    },
    {
        "date": "2024-12-03",
        "name": "Evans ",
        "location": "Whm",
        "product": "EarBud Cleaner",
        "state": "AA",
        "phone_number": "0243450454"
    },
    {
        "date": "2024-12-03",
        "name": "Howard ",
        "location": "Cape Coast",
        "product": "EarBud Cleaner",
        "state": "CP",
        "phone_number": "0543974964"
    }
]