[
    {
        "date": "2024-12-04",
        "name": "Herbert Adams ",
        "location": "Sawer",
        "product": "Nano Tape",
        "state": "EP",
        "phone_number": "0594130805"
    },
    {
        "date": "2024-12-04",
        "name": "Bissabah ",
        "location": "Adentan",
        "product": "Nano Tape",
        "state": "AA",
        "phone_number": "0243169508"
    },
    {
        "date": "2024-12-04",
        "name": "Chidimma ",
        "location": "Northern Region Opposite Ay Transport Station",
        "product": "Windscreen Umbrella",
        "state": "AA",
        "phone_number": "054 991 0103"
    },
    {
        "date": "2024-12-04",
        "name": "Shardrack ",
        "location": "GE-183-5172",
        "product": "Windscreen Umbrella",
        "state": "AA",
        "phone_number": "0534959847"
    },
    {
        "date": "2024-12-04",
        "name": "Kojo ",
        "location": "GRA OFFICE HO",
        "product": "Windscreen Umbrella",
        "state": "TV",
        "phone_number": "0246999115"
    },
    {
        "date": "2024-12-04",
        "name": "Kojo ",
        "location": "GRA OFFICE",
        "product": "Windscreen Umbrella",
        "state": "AA",
        "phone_number": "0246999115"
    },
    {
        "date": "2024-12-04",
        "name": "Prince ",
        "location": "12",
        "product": "Windscreen Umbrella",
        "state": "AA",
        "phone_number": "0240591583"
    },
    {
        "date": "2024-12-04",
        "name": "Michael ",
        "location": "Osad Legal Consult Amrahia",
        "product": "Windscreen Umbrella",
        "state": "AA",
        "phone_number": "0244231517"
    },
    {
        "date": "2024-12-04",
        "name": "Daniel allotey ",
        "location": "Scc weija gicel estate",
        "product": "Nano Tape",
        "state": "AA",
        "phone_number": "0543816824"
    },
    {
        "date": "2024-12-04",
        "name": "Francis Frimpong Karikari ",
        "location": "Obuasi Adansi West Abompe Neighborhood Hospital",
        "product": "Nano Tape",
        "state": "AH",
        "phone_number": "0244234536"
    },
    {
        "date": "2024-12-04",
        "name": "James ",
        "location": "Nii Afrotse Street Haatso",
        "product": "Nano Tape",
        "state": "AA",
        "phone_number": "0554490195"
    },
    {
        "date": "2024-12-04",
        "name": "Felix ",
        "location": "Jamestown",
        "product": "Nano Tape",
        "state": "AA",
        "phone_number": "0273545409"
    },
    {
        "date": "2024-12-04",
        "name": "Awuralin ",
        "location": "Teshie,accra",
        "product": "Nano Tape",
        "state": "AA",
        "phone_number": "0540417800"
    },
    {
        "date": "2024-12-04",
        "name": "David Osei Antwi ",
        "location": "Nkawkaw",
        "product": "Nano Tape",
        "state": "AA",
        "phone_number": "0559617511"
    },
    {
        "date": "2024-12-04",
        "name": "Bright ",
        "location": "GRA Office",
        "product": "Nano Tape",
        "state": "AA",
        "phone_number": "233506302279"
    },
    {
        "date": "2024-12-04",
        "name": "George nana ",
        "location": "Takoradi asada fm",
        "product": "Nano Tape",
        "state": "AA",
        "phone_number": "0241614121"
    },
    {
        "date": "2024-12-04",
        "name": "Joseph ",
        "location": "Kasapreko Company ltd",
        "product": "Windscreen Umbrella",
        "state": "AA",
        "phone_number": "0243990503"
    },
    {
        "date": "2024-12-04",
        "name": "Clement ",
        "location": "Anikoko",
        "product": "Nano Tape",
        "state": "WP",
        "phone_number": "0530456231"
    },
    {
        "date": "2024-12-04",
        "name": " ",
        "location": "",
        "product": "Hair Twist Sponge",
        "state": "AA",
        "phone_number": ""
    },
    {
        "date": "2024-12-04",
        "name": "Adrian ",
        "location": "29 New Abossey Okai Street",
        "product": "Windscreen Umbrella",
        "state": "AA",
        "phone_number": "0243074579"
    },
    {
        "date": "2024-12-04",
        "name": "Sylvester ",
        "location": "Wenchi",
        "product": "Nano Tape",
        "state": "AA",
        "phone_number": "0245893415"
    },
    {
        "date": "2024-12-04",
        "name": "Charles Yaw Sarkodie ",
        "location": "A2-1694-0092",
        "product": "Nano Tape",
        "state": "AA",
        "phone_number": "233 244 739876"
    },
    {
        "date": "2024-12-04",
        "name": "Chris mbah ",
        "location": "Lands Commission Box 183,cape Coast",
        "product": "Nano Tape",
        "state": "CP",
        "phone_number": "0246232264"
    },
    {
        "date": "2024-12-04",
        "name": "James Addo ",
        "location": "Honda place, graphic road",
        "product": "Nano Tape",
        "state": "AA",
        "phone_number": "0244660063"
    },
    {
        "date": "2024-12-04",
        "name": "Augustine ",
        "location": "Kasoa Melcom",
        "product": "Windscreen Umbrella",
        "state": "AA",
        "phone_number": "0241719090"
    },
    {
        "date": "2024-12-04",
        "name": "Osika ",
        "location": "takoradi",
        "product": "Windscreen Umbrella",
        "state": "WP",
        "phone_number": "0242818462"
    },
    {
        "date": "2024-12-04",
        "name": "Dave ",
        "location": "Adum - Kumasi",
        "product": "Windscreen Umbrella",
        "state": "AA",
        "phone_number": "055 915 7399"
    },
    {
        "date": "2024-12-04",
        "name": "King ",
        "location": "Labone honeysuckle",
        "product": "Nano Tape",
        "state": "AA",
        "phone_number": "0270374676"
    },
    {
        "date": "2024-12-04",
        "name": "Christian Atsu Amenudzi ",
        "location": "Elephant street",
        "product": "Nano Tape",
        "state": "AA",
        "phone_number": "0249306131"
    },
    {
        "date": "2024-12-04",
        "name": "Percy Offei ",
        "location": "Asokwa Presby Mission House",
        "product": "Nano Tape",
        "state": "AH",
        "phone_number": "0243760985"
    },
    {
        "date": "2024-12-04",
        "name": "Isaac Karkari ",
        "location": "BoxKS 5051,Adum",
        "product": "Nano Tape",
        "state": "AH",
        "phone_number": "0244672217"
    },
    {
        "date": "2024-12-04",
        "name": "Abdul Rahman Mutala ",
        "location": "Tamale-Jisonayili",
        "product": "Nano Tape",
        "state": "NP",
        "phone_number": "0242104003"
    },
    {
        "date": "2024-12-04",
        "name": "Mensah Bismark ",
        "location": "Box 389 Obuasi Municipal, Ashanti Region",
        "product": "Nano Tape",
        "state": "AH",
        "phone_number": "+233203802237"
    },
    {
        "date": "2024-12-04",
        "name": "Stephen ",
        "location": "Tarkwa Cyanide Type B 25",
        "product": "Nano Tape",
        "state": "WP",
        "phone_number": "+233542174280"
    },
    {
        "date": "2024-12-04",
        "name": "Suraj ",
        "location": "Ek-0021-4072",
        "product": "Nano Tape",
        "state": "EP",
        "phone_number": "0533567080"
    },
    {
        "date": "2024-12-04",
        "name": "Felix ",
        "location": "Ashiman Katamasu , School Juction",
        "product": "Nano Tape",
        "state": "AA",
        "phone_number": "0534956507"
    },
    {
        "date": "2024-12-04",
        "name": "David Dordah ",
        "location": "Box 643 Wa Upper West Region. XO-4602-5127",
        "product": "Nano Tape",
        "state": "UW",
        "phone_number": "0244840511"
    },
    {
        "date": "2024-12-04",
        "name": "Felix ",
        "location": "Dd 38 Dodowa",
        "product": "Nano Tape",
        "state": "AA",
        "phone_number": "024 211 1665"
    },
    {
        "date": "2024-12-04",
        "name": "JOHN Dadzie ",
        "location": "DELA, Sakaman",
        "product": "Windscreen Umbrella",
        "state": "AA",
        "phone_number": "0550231324"
    },
    {
        "date": "2024-12-04",
        "name": "Rich ",
        "location": "Dome",
        "product": "Nano Tape",
        "state": "AA",
        "phone_number": "0536720128"
    },
    {
        "date": "2024-12-04",
        "name": "Julien ",
        "location": "Accra Financial Center",
        "product": "Nano Tape",
        "state": "AA",
        "phone_number": "0553996336"
    },
    {
        "date": "2024-12-04",
        "name": "Daniel ",
        "location": "BJ1118 kpone",
        "product": "Nano Tape",
        "state": "AA",
        "phone_number": "0257960764"
    },
    {
        "date": "2024-12-04",
        "name": "Mikado Ptomise ",
        "location": "Medo lines Burma camp",
        "product": "Windscreen Umbrella",
        "state": "AA",
        "phone_number": "0240820118"
    },
    {
        "date": "2024-12-04",
        "name": "Eric Odoom ",
        "location": "Asankragwa",
        "product": "Nano Tape",
        "state": "WP",
        "phone_number": "+233241658563"
    },
    {
        "date": "2024-12-04",
        "name": "Eric ",
        "location": "Asankragwa",
        "product": "Nano Tape",
        "state": "AA",
        "phone_number": "+233241658563"
    },
    {
        "date": "2024-12-04",
        "name": "Kpaye ",
        "location": "Goaso",
        "product": "Nano Tape",
        "state": "AF",
        "phone_number": "0257300851"
    },
    {
        "date": "2024-12-04",
        "name": "King Arthur ",
        "location": "Arakan barracks Burma camp Accra block c room 55",
        "product": "Windscreen Umbrella",
        "state": "AA",
        "phone_number": "+233240192128"
    },
    {
        "date": "2024-12-04",
        "name": "Meshack ",
        "location": "Berlin Top",
        "product": "Nano Tape",
        "state": "BO",
        "phone_number": "+233242098004"
    },
    {
        "date": "2024-12-04",
        "name": "Shadrack churcher ",
        "location": "Duncan Street Tarkwa",
        "product": "Windscreen Umbrella",
        "state": "AA",
        "phone_number": "0244023172"
    },
    {
        "date": "2024-12-04",
        "name": "Kwabena ",
        "location": "Cape Coast,eyifua Estates",
        "product": "Nano Tape",
        "state": "AA",
        "phone_number": "0276159779"
    },
    {
        "date": "2024-12-04",
        "name": "Abdul ",
        "location": "Lands commission Kumasi",
        "product": "Nano Tape",
        "state": "AH",
        "phone_number": "242321309"
    },
    {
        "date": "2024-12-04",
        "name": "Judith ",
        "location": "Kwashieman Jah Love",
        "product": "Nano Tape",
        "state": "AA",
        "phone_number": "0547858877"
    },
    {
        "date": "2024-12-04",
        "name": "Cletus ",
        "location": "Cal 194",
        "product": "Nano Tape",
        "state": "UE",
        "phone_number": "24-457-6583"
    },
    {
        "date": "2024-12-04",
        "name": "Abdul-Latif Adam ",
        "location": "Wa",
        "product": "Nano Tape",
        "state": "UW",
        "phone_number": "0207714911"
    },
    {
        "date": "2024-12-04",
        "name": "Marlomer ",
        "location": "Abelemkpe",
        "product": "Windscreen Umbrella",
        "state": "AA",
        "phone_number": "0245001611"
    },
    {
        "date": "2024-12-04",
        "name": "William ",
        "location": "Motto way Abatoir bridge",
        "product": "Nano Tape",
        "state": "AA",
        "phone_number": "531703056"
    },
    {
        "date": "2024-12-04",
        "name": "Ayaabilla ",
        "location": "Osino",
        "product": "Nano Tape",
        "state": "TV",
        "phone_number": "0541338868"
    },
    {
        "date": "2024-12-04",
        "name": "Richard annor asare ",
        "location": "138 Ask/b 128",
        "product": "Nano Tape",
        "state": "AA",
        "phone_number": "0535055582"
    },
    {
        "date": "2024-12-04",
        "name": "Solomon ",
        "location": "Breman UGC dvla office",
        "product": "Nano Tape",
        "state": "AA",
        "phone_number": "0549653734"
    },
    {
        "date": "2024-12-04",
        "name": "Emmanuel ",
        "location": "Kokobite Road Frimps Fuel Station Kasoa",
        "product": "Windscreen Umbrella",
        "state": "AA",
        "phone_number": "(+233)598898917"
    },
    {
        "date": "2024-12-04",
        "name": "Joel ",
        "location": "Tema com 4 bacardis",
        "product": "Windscreen Umbrella",
        "state": "AA",
        "phone_number": "0555700411"
    },
    {
        "date": "2024-12-04",
        "name": "Zakariah Awusi ",
        "location": "F24, Sapele, Twimia-Techiman",
        "product": "Nano Tape",
        "state": "BE",
        "phone_number": "233206333381"
    },
    {
        "date": "2024-12-04",
        "name": "Vince ",
        "location": "Spintex",
        "product": "Nano Tape",
        "state": "AA",
        "phone_number": "0245945130"
    },
    {
        "date": "2024-12-04",
        "name": "Benjamin ",
        "location": "Pmb GNAT office nkawie",
        "product": "Windscreen Umbrella",
        "state": "AH",
        "phone_number": "0543923353"
    },
    {
        "date": "2024-12-04",
        "name": "John mohammed ",
        "location": "Presidential drive",
        "product": "Windscreen Umbrella",
        "state": "AA",
        "phone_number": "0547968717"
    },
    {
        "date": "2024-12-04",
        "name": "Yaw Asamoah ",
        "location": "Makola Shopping Mall, Accra Central",
        "product": "Windscreen Umbrella",
        "state": "AA",
        "phone_number": "0244614671"
    },
    {
        "date": "2024-12-04",
        "name": "Jones ",
        "location": "Ds 2323 Dansoman",
        "product": "Windscreen Umbrella",
        "state": "AA",
        "phone_number": "0209990211"
    },
    {
        "date": "2024-12-04",
        "name": "Kennedy ",
        "location": "#2 Justice Azu Crabbe St East Legon",
        "product": "Windscreen Umbrella",
        "state": "AA",
        "phone_number": "+233543504956"
    },
    {
        "date": "2024-12-04",
        "name": "Eric Boadu ",
        "location": "Apinto Government Hospital.Tarkw",
        "product": "Windscreen Umbrella",
        "state": "WP",
        "phone_number": "0544540460"
    },
    {
        "date": "2024-12-04",
        "name": "Kobby ",
        "location": "No. 51c Hse. North Ridge close to Alisa Hotel",
        "product": "Windscreen Umbrella",
        "state": "AA",
        "phone_number": "0243628146"
    },
    {
        "date": "2024-12-04",
        "name": "DAVID OLOSO ",
        "location": "F 20",
        "product": "Windscreen Umbrella",
        "state": "EP",
        "phone_number": "0546223030"
    },
    {
        "date": "2024-12-04",
        "name": "Isaac ",
        "location": "Ejisu Kwamo Star Health Clinic Premises",
        "product": "Windscreen Umbrella",
        "state": "AA",
        "phone_number": "24-874-7420"
    },
    {
        "date": "2024-12-04",
        "name": "Stephanie ",
        "location": "Botwe Lakeside transformer last stop",
        "product": "Windscreen Umbrella",
        "state": "AA",
        "phone_number": "0244480733"
    },
    {
        "date": "2024-12-04",
        "name": "Isaac ",
        "location": "S149 Tanzui Bolgatanga",
        "product": "Windscreen Umbrella",
        "state": "AA",
        "phone_number": "+233241227714"
    },
    {
        "date": "2024-12-04",
        "name": "Emmanuel ",
        "location": "Dansoman",
        "product": "Windscreen Umbrella",
        "state": "AA",
        "phone_number": "024 482 5083"
    },
    {
        "date": "2024-12-04",
        "name": "Captain Addo ",
        "location": "Sethi Realty Estate Tema Community 26, Around Kpone Kuffour affordable housing",
        "product": "Windscreen Umbrella",
        "state": "AA",
        "phone_number": "0202140495"
    },
    {
        "date": "2024-12-04",
        "name": "Eyram Agbeko Morgah ",
        "location": "Bibiani Nsuontem Road Aloe Vera Street",
        "product": "Windscreen Umbrella",
        "state": "WN",
        "phone_number": "(+233)242303810"
    },
    {
        "date": "2024-12-04",
        "name": "dickson ",
        "location": "ergt",
        "product": "Car Wash Nozzle",
        "state": "AA",
        "phone_number": "456457"
    },
    {
        "date": "2024-12-04",
        "name": "Paa Kwesi ",
        "location": "Madina Maye Hot",
        "product": "Windscreen Umbrella",
        "state": "AA",
        "phone_number": "020 906 1176"
    },
    {
        "date": "2024-12-04",
        "name": "Kwadwo ",
        "location": "3 Mps Terminal 3, Tema Community",
        "product": "Windscreen Umbrella",
        "state": "AA",
        "phone_number": "0200399488"
    },
    {
        "date": "2024-12-04",
        "name": "Kwadwo ",
        "location": "Box lf 374 koforidua",
        "product": "Windscreen Umbrella",
        "state": "EP",
        "phone_number": "0555773336"
    },
    {
        "date": "2024-12-04",
        "name": "KINGDOM ",
        "location": "H/n. GF 31 Freetown",
        "product": "Windscreen Umbrella",
        "state": "AA",
        "phone_number": "0249293718"
    },
    {
        "date": "2024-12-04",
        "name": "James Larbi ",
        "location": "A worker at ECG office at Fawoade opposite Simms school",
        "product": "Windscreen Umbrella",
        "state": "AH",
        "phone_number": "0593777529"
    },
    {
        "date": "2024-12-04",
        "name": "Babayar ",
        "location": "W/E 380",
        "product": "Windscreen Umbrella",
        "state": "NP",
        "phone_number": "0241633825"
    },
    {
        "date": "2024-12-04",
        "name": "Vincent ",
        "location": "Lekma Hospital Teshie",
        "product": "Windscreen Umbrella",
        "state": "AA",
        "phone_number": "0547314891"
    },
    {
        "date": "2024-12-04",
        "name": "Habib ",
        "location": "Madina Accra",
        "product": "Windscreen Umbrella",
        "state": "AA",
        "phone_number": "0244170683"
    },
    {
        "date": "2024-12-04",
        "name": "Francis Ampiaw ",
        "location": "Ho Technical University, Ho",
        "product": "Windscreen Umbrella",
        "state": "TV",
        "phone_number": "0244512468"
    },
    {
        "date": "2024-12-04",
        "name": "Alexander ",
        "location": "1st Rangoon Close, Accra",
        "product": "Windscreen Umbrella",
        "state": "AA",
        "phone_number": "+233 24 286 7395"
    },
    {
        "date": "2024-12-04",
        "name": "Keneth ",
        "location": "Gw-0228-7270 ,ofankor,greater Accra",
        "product": "Windscreen Umbrella",
        "state": "AA",
        "phone_number": "+233532628667"
    },
    {
        "date": "2024-12-04",
        "name": "Henry ",
        "location": "Ak 57'A",
        "product": "Windscreen Umbrella",
        "state": "WP",
        "phone_number": "0541756447"
    },
    {
        "date": "2024-12-04",
        "name": "OSMAN ",
        "location": "21B TANZUI BOLGATANGA",
        "product": "Windscreen Umbrella",
        "state": "AA",
        "phone_number": "0247437841"
    },
    {
        "date": "2024-12-04",
        "name": "Prince ",
        "location": "Teshie",
        "product": "Windscreen Umbrella",
        "state": "AA",
        "phone_number": "0242012227"
    },
    {
        "date": "2024-12-04",
        "name": "Noble ",
        "location": "Commercial Bank Junction Konongo",
        "product": "Windscreen Umbrella",
        "state": "AH",
        "phone_number": "0249241398"
    },
    {
        "date": "2024-12-04",
        "name": "Edmond Zankoh ",
        "location": "National Hockey Stadium near team station Accra",
        "product": "Windscreen Umbrella",
        "state": "AA",
        "phone_number": "+233545183765"
    },
    {
        "date": "2024-12-04",
        "name": "Hanson ",
        "location": "Tafo 4miles",
        "product": "Windscreen Umbrella",
        "state": "AH",
        "phone_number": "0546469564"
    },
    {
        "date": "2024-12-04",
        "name": "Essuman ",
        "location": "C5 Junction Leisure Hotel Road Nungua",
        "product": "Windscreen Umbrella",
        "state": "AA",
        "phone_number": "0240827226"
    },
    {
        "date": "2024-12-04",
        "name": "Daniel ",
        "location": "Ashanti Gardens, House # H",
        "product": "Windscreen Umbrella",
        "state": "AA",
        "phone_number": "053-103-2446"
    },
    {
        "date": "2024-12-04",
        "name": "Abraham Yeboah ",
        "location": "26 A Safo II crescent kotei, kumasi",
        "product": "Windscreen Umbrella",
        "state": "AH",
        "phone_number": "262884544"
    },
    {
        "date": "2024-12-04",
        "name": "Henry ",
        "location": "Spintex com 20",
        "product": "Windscreen Umbrella",
        "state": "AA",
        "phone_number": "0247550600"
    },
    {
        "date": "2024-12-04",
        "name": "Isaac Benefo ",
        "location": "Controller and accountant general department",
        "product": "Windscreen Umbrella",
        "state": "AA",
        "phone_number": "0556676866"
    },
    {
        "date": "2024-12-04",
        "name": "Brilliant ",
        "location": "Keta Hospital Bungalow",
        "product": "Windscreen Umbrella",
        "state": "TV",
        "phone_number": "0248703311"
    },
    {
        "date": "2024-12-04",
        "name": "George ",
        "location": "Plt6 Blk7 Asokwa Kumasi",
        "product": "Windscreen Umbrella",
        "state": "AH",
        "phone_number": "027 716 6098"
    },
    {
        "date": "2024-12-04",
        "name": "Justice ",
        "location": "Gps 0112",
        "product": "Windscreen Umbrella",
        "state": "AA",
        "phone_number": "+233555152760"
    },
    {
        "date": "2024-12-04",
        "name": "Samuel ",
        "location": "Sefwi Juaboso",
        "product": "EarBud Cleaner",
        "state": "AA",
        "phone_number": "0247775169"
    },
    {
        "date": "2024-12-04",
        "name": "MOJEED ",
        "location": "Ashongman estate",
        "product": "EarBud Cleaner",
        "state": "AA",
        "phone_number": "0500441017"
    },
    {
        "date": "2024-12-04",
        "name": "Richard Agbesi ",
        "location": "B Road Sakumono",
        "product": "EarBud Cleaner",
        "state": "AA",
        "phone_number": "+233242789058"
    },
    {
        "date": "2024-12-04",
        "name": "Maame ",
        "location": "Comm 16 Timber Market",
        "product": "EarBud Cleaner",
        "state": "AA",
        "phone_number": "024 008 1422"
    },
    {
        "date": "2024-12-04",
        "name": "Kingsley ",
        "location": "Agape House New Testament Church",
        "product": "EarBud Cleaner",
        "state": "AA",
        "phone_number": "+233546414338"
    },
    {
        "date": "2024-12-04",
        "name": "Nana ",
        "location": "Block 2,flat G7 Ssnit Flat Asuoyeboa",
        "product": "EarBud Cleaner",
        "state": "AH",
        "phone_number": "0543545259"
    },
    {
        "date": "2024-12-04",
        "name": "Nana ",
        "location": "Block 2,flat G7 Ssnit Flat Asuoyeboa",
        "product": "EarBud Cleaner",
        "state": "AA",
        "phone_number": "0543545259"
    },
    {
        "date": "2024-12-04",
        "name": "Evans ",
        "location": "Whm",
        "product": "EarBud Cleaner",
        "state": "AA",
        "phone_number": "0243450454"
    },
    {
        "date": "2024-12-04",
        "name": "Howard ",
        "location": "Cape Coast",
        "product": "EarBud Cleaner",
        "state": "CP",
        "phone_number": "0543974964"
    }
]